<?xml version="1.0" encoding="UTF-8"?>
<kml xmlns="http://www.opengis.net/kml/2.2" xmlns:gx="http://www.google.com/kml/ext/2.2">
<Document>
  <!-- Begin Style Definitions -->
  <Style id="point1">
    <IconStyle><Icon><href>https://user-images.githubusercontent.com/66349026/101488075-13828600-399a-11eb-876d-0df21123780a.png</href></Icon></IconStyle>
  </Style>
  <Folder>
    <name>Point Features</name>
    <description>Point Features</description>
    <Placemark>
      <description>Unknown Point Feature</description>
      <name>KPJ Johor Specialist Hospital</name>
      <styleUrl>#point1</styleUrl>
      <Point>
        <coordinates>103.7410923000,1.4759835000,0</coordinates>
      </Point>
    </Placemark>
    <Placemark>
      <description>Unknown Point Feature</description>
      <name>KPJ Healthcare Berhad</name>
      <styleUrl>#point1</styleUrl>
      <Point>
        <coordinates>100.3694700000,6.1487000000,-999999</coordinates>
      </Point>
    </Placemark>
    <Placemark>
      <description>Unknown Point Feature</description>
      <name>KPJ Perdana Specialist Hospital</name>
      <styleUrl>#point1</styleUrl>
      <Point>
        <coordinates>102.2436092000,6.1217000000,0</coordinates>
      </Point>
    </Placemark>
    <Placemark>
      <description>Unknown Point Feature</description>
      <name>KPJ Tawakkal KL Specialist Hospital</name>
      <styleUrl>#point1</styleUrl>
      <Point>
        <coordinates>101.6986424000,3.1769514000,-999999</coordinates>
      </Point>
    </Placemark>
    <Placemark>
      <description>Unknown Point Feature</description>
      <name>KPJ Sentosa KL Specialist Hospital</name>
      <styleUrl>#point1</styleUrl>
      <Point>
        <coordinates>101.6971591000,3.1708655000,-999999</coordinates>
      </Point>
    </Placemark>
    <Placemark>
      <description>Unknown Point Feature</description>
      <name>KPJ Seremban Specialist Hospital</name>
      <styleUrl>#point1</styleUrl>
      <Point>
        <coordinates>101.9218260000,2.7185250000,-999999</coordinates>
      </Point>
    </Placemark>
    <Placemark>
      <description>Unknown Point Feature</description>
      <name>KPJ Healthcare University College</name>
      <styleUrl>#point1</styleUrl>
      <Point>
        <coordinates>101.7732640000,2.7795990000,0</coordinates>
      </Point>
    </Placemark>
    <Placemark>
      <description>Unknown Point Feature</description>
      <name>KPJ Pahang Specialist Hospital</name>
      <styleUrl>#point1</styleUrl>
      <Point>
        <coordinates>103.3366227000,3.7999731000,0</coordinates>
      </Point>
    </Placemark>
    <Placemark>
      <description>Unknown Point Feature</description>
      <name>KPJ Penang Specialist Hospital</name>
      <styleUrl>#point1</styleUrl>
      <Point>
        <coordinates>100.4342930000,5.3691300000,0</coordinates>
      </Point>
    </Placemark>
    <Placemark>
      <description>Unknown Point Feature</description>
      <name>KPJ Ipoh Specialist Hospital</name>
      <styleUrl>#point1</styleUrl>
      <Point>
        <coordinates>101.0961291000,4.5948899000,0</coordinates>
      </Point>
    </Placemark>
    <Placemark>
      <description>Unknown Point Feature</description>
      <name>KPJ Sri Manjung Specialist Hospital</name>
      <styleUrl>#point1</styleUrl>
      <Point>
        <coordinates>100.6751812000,4.2077181000,0</coordinates>
      </Point>
    </Placemark>
    <Placemark>
      <description>Unknown Point Feature</description>
      <name>KPJ Taiping Medical Centre</name>
      <styleUrl>#point1</styleUrl>
      <Point>
        <coordinates>100.7324828000,4.8474791000,0</coordinates>
      </Point>
    </Placemark>
    <Placemark>
      <description>Unknown Point Feature</description>
      <name>KPJ Perlis Specialist Hospital (Hospital Pakar KPJ Perlis)</name>
      <styleUrl>#point1</styleUrl>
      <Point>
        <coordinates>100.1864547000,6.4332029000,0</coordinates>
      </Point>
    </Placemark>
    <Placemark>
      <description>Unknown Point Feature</description>
      <name>KPJ Kajang Specialist Hospital</name>
      <styleUrl>#point1</styleUrl>
      <Point>
        <coordinates>101.7857178000,2.9999093000,-999999</coordinates>
      </Point>
    </Placemark>
    <Placemark>
      <description>Unknown Point Feature</description>
      <name>KPJ Kuching Specialist Hospital</name>
      <styleUrl>#point1</styleUrl>
      <Point>
        <coordinates>110.3660038000,1.5058335000,0</coordinates>
      </Point>
    </Placemark>
    <Placemark>
      <description>Unknown Point Feature</description>
      <name>KPJ Sibu Specialist Medical Centre</name>
      <styleUrl>#point1</styleUrl>
      <Point>
        <coordinates>111.8322900000,2.3009592000,0</coordinates>
      </Point>
    </Placemark>
    <Placemark>
      <description>Unknown Point Feature</description>
      <name>NEW KPJ HOSPITAL</name>
      <styleUrl>#point1</styleUrl>
      <Point>
        <coordinates>110.3660389000,1.5064031000,0</coordinates>
      </Point>
    </Placemark>
    <Placemark>
      <description>Unknown Point Feature</description>
      <name>KPJ Miri Specialist Hospital</name>
      <styleUrl>#point1</styleUrl>
      <Point>
        <coordinates>114.0340083000,4.4481130000,0</coordinates>
      </Point>
    </Placemark>
    <Placemark>
      <description>Unknown Point Feature</description>
      <name>KPJ Sabah Specialist Hospital</name>
      <styleUrl>#point1</styleUrl>
      <Point>
        <coordinates>116.0930550000,5.9671364000,0</coordinates>
      </Point>
    </Placemark>
    <Placemark>
      <description>Unknown Point Feature</description>
      <name>KPJ Selangor Specialist Hospital</name>
      <styleUrl>#point1</styleUrl>
      <Point>
        <coordinates>101.5407779000,3.0573727000,0</coordinates>
      </Point>
    </Placemark>
    <Placemark>
      <description>Unknown Point Feature</description>
      <name>KPJ Klang Specialist Hospital</name>
      <styleUrl>#point1</styleUrl>
      <Point>
        <coordinates>101.4633548000,3.0623020000,0</coordinates>
      </Point>
    </Placemark>
  </Folder>
</Document>
</kml>
